TIME           	LAT            	LON            	AIR_PRESS      	AIR_TEMP       	GRD_SPEED      	TRU_AIRSP      	TRACK          	HEADING        	PITCH          	ROLL           	JWLWC          	DEW_POINT      	GEOPOT_ALT     	PRES_ALT       	WIND_SPD       	WIND_DIR       	VERT_GRDSPD    	VERT_AIRSPD    	VERT_WIND      	 
 18:44:50	38.1386   	-123.4791 	907.3     	4.5       	116.25    	115.30    	299.2     	286.2     	1.3       	-3.4      	0.2       	4.5       	945.0     	922.0     	28.6      	200.2     	-0.4      	-1.5      	1.1       	 
 18:44:51	38.1391   	-123.4802 	907.3     	4.4       	116.47    	116.40    	299.0     	286.0     	1.3       	-3.2      	0.2       	4.5       	945.0     	922.0     	29.0      	201.6     	-0.1      	-1.5      	1.3       	 
 18:44:52	38.1396   	-123.4814 	907.3     	4.4       	116.75    	116.40    	298.8     	285.7     	0.6       	-3.0      	0.2       	4.5       	945.0     	922.0     	28.6      	201.0     	-0.3      	-2.0      	1.7       	 
 18:44:53	38.1401   	-123.4825 	907.5     	4.3       	117.06    	116.80    	298.5     	285.7     	0.1       	-2.5      	0.2       	4.6       	945.0     	920.0     	27.4      	201.3     	-1.2      	-2.5      	1.1       	 
 18:44:54	38.1406   	-123.4837 	907.8     	4.3       	117.44    	118.30    	298.4     	286.0     	0.0       	-1.7      	0.2       	4.6       	943.0     	918.0     	27.2      	203.6     	-2.2      	-2.5      	0.2       	 
 18:44:55	38.1411   	-123.4849 	908.0     	4.5       	117.88    	118.30    	298.3     	286.2     	0.5       	-1.1      	0.2       	4.5       	942.0     	916.0     	27.9      	202.4     	-2.4      	-2.7      	0.3       	 
 18:44:56	38.1416   	-123.4861 	908.2     	4.5       	118.28    	118.30    	298.3     	286.2     	1.2       	-0.5      	0.2       	4.5       	938.0     	914.0     	27.6      	201.7     	-1.5      	-2.0      	0.6       	 
 18:44:57	38.1421   	-123.4873 	908.3     	4.5       	118.57    	119.10    	298.4     	286.3     	1.7       	0.6       	0.2       	4.5       	937.0     	913.0     	27.5      	202.9     	-0.5      	-0.8      	0.4       	 
 18:44:58	38.1426   	-123.4885 	908.4     	4.6       	118.88    	119.00    	298.6     	286.7     	1.8       	2.2       	0.2       	4.5       	935.0     	912.0     	28.3      	202.1     	0.4       	-0.2      	0.6       	 
 18:44:59	38.1431   	-123.4896 	908.3     	4.6       	119.21    	118.20    	299.0     	286.8     	2.2       	3.5       	0.2       	4.5       	936.0     	913.0     	28.0      	200.1     	1.5       	0.0       	1.5       	 
 18:45:00	38.1437   	-123.4908 	908.3     	4.5       	119.52    	118.70    	299.4     	287.3     	2.0       	4.3       	0.2       	4.5       	937.0     	913.0     	27.9      	200.9     	1.7       	0.8       	0.8       	 
 18:45:01	38.1442   	-123.4920 	908.2     	4.5       	119.86    	119.00    	299.8     	287.8     	1.3       	4.6       	0.2       	4.5       	938.0     	914.0     	27.3      	201.5     	0.8       	0.8       	-0.1      	 
 18:45:02	38.1447   	-123.4932 	908.1     	4.5       	120.25    	119.80    	300.2     	288.6     	0.8       	4.0       	0.2       	4.5       	939.0     	915.0     	27.0      	202.7     	-0.4      	0.1       	-0.5      	 
 18:45:03	38.1453   	-123.4944 	908.2     	4.5       	120.74    	119.80    	300.6     	289.1     	0.6       	3.9       	0.2       	4.5       	939.0     	914.0     	27.8      	202.1     	-0.8      	-1.2      	0.3       	 
 18:45:04	38.1458   	-123.4956 	908.3     	4.5       	121.24    	120.40    	301.0     	289.3     	0.6       	3.9       	0.2       	4.5       	938.0     	913.0     	27.7      	202.7     	-1.2      	-1.3      	0.2       	 
 18:45:05	38.1464   	-123.4967 	908.4     	4.6       	121.71    	120.90    	301.4     	289.7     	0.5       	3.2       	0.2       	4.5       	936.0     	912.0     	27.5      	203.1     	-1.5      	-1.7      	0.3       	 
 18:45:06	38.1470   	-123.4979 	908.6     	4.6       	122.21    	121.30    	301.7     	290.2     	0.2       	2.7       	0.2       	4.6       	935.0     	910.0     	27.6      	203.3     	-1.7      	-2.2      	0.6       	 
 18:45:07	38.1476   	-123.4991 	908.7     	4.8       	122.74    	121.20    	302.0     	290.6     	-0.1      	2.5       	0.2       	4.6       	933.0     	909.0     	27.5      	202.4     	-2.2      	-2.5      	0.3       	 
 18:45:08	38.1481   	-123.5003 	909.1     	4.8       	123.26    	121.00    	302.3     	290.7     	-0.2      	2.0       	0.2       	4.8       	931.0     	906.0     	27.7      	201.1     	-2.9      	-3.0      	0.1       	 
 18:45:09	38.1487   	-123.5015 	909.3     	4.6       	123.66    	121.60    	302.5     	291.1     	0.0       	1.7       	0.2       	4.6       	928.0     	904.0     	27.7      	201.9     	-3.0      	-3.0      	0.1       	 
 18:45:10	38.1493   	-123.5027 	909.6     	4.8       	123.94    	122.20    	302.8     	291.3     	0.2       	1.1       	0.2       	4.6       	925.0     	901.0     	27.0      	202.8     	-3.0      	-2.5      	-0.3      	 
 18:45:11	38.1499   	-123.5039 	909.8     	4.9       	124.16    	122.30    	303.0     	291.7     	0.8       	0.8       	0.2       	4.6       	923.0     	899.0     	27.4      	202.6     	-2.0      	-2.2      	0.3       	 
 18:45:12	38.1506   	-123.5050 	910.2     	4.9       	124.33    	121.70    	303.2     	291.8     	1.0       	0.3       	0.2       	4.6       	921.0     	896.0     	28.3      	201.4     	-1.5      	-1.6      	0.1       	 
 18:45:13	38.1512   	-123.5062 	910.3     	4.9       	124.42    	121.20    	303.4     	291.7     	0.8       	-0.4      	0.2       	4.6       	920.0     	895.0     	27.3      	200.3     	-1.2      	-1.5      	0.1       	 
 18:45:14	38.1518   	-123.5074 	910.4     	4.9       	124.47    	120.90    	303.4     	292.0     	0.6       	-0.6      	0.2       	4.6       	918.0     	894.0     	27.2      	199.6     	-1.7      	-1.2      	-0.4      	 
 18:45:15	38.1524   	-123.5086 	910.5     	4.8       	124.61    	120.10    	303.5     	292.1     	0.4       	-0.4      	0.3       	4.6       	916.0     	893.0     	27.6      	197.8     	-2.0      	-2.4      	0.4       	 
 18:45:16	38.1530   	-123.5098 	910.7     	4.6       	124.78    	120.20    	303.6     	292.1     	0.5       	-0.5      	0.3       	4.6       	915.0     	891.0     	27.9      	197.7     	-1.7      	-2.4      	0.8       	 
 18:45:17	38.1536   	-123.5110 	910.9     	4.6       	124.91    	122.40    	303.8     	292.1     	0.6       	-0.3      	0.2       	4.5       	913.0     	889.0     	28.8      	202.2     	-1.7      	-1.7      	0.1       	 
 18:45:18	38.1543   	-123.5121 	911.2     	4.9       	125.00    	122.90    	303.9     	292.0     	1.0       	-0.4      	0.1       	4.6       	912.0     	887.0     	29.1      	203.0     	-1.1      	-1.5      	0.4       	 
 18:45:19	38.1549   	-123.5133 	911.3     	5.0       	125.03    	122.60    	304.0     	291.8     	1.0       	-0.5      	0.1       	4.8       	910.0     	886.0     	29.0      	202.5     	-0.8      	-1.0      	0.1       	 
 18:45:20	38.1555   	-123.5145 	911.3     	5.0       	125.01    	122.70    	304.1     	291.8     	1.2       	-0.5      	0.1       	4.9       	909.0     	886.0     	29.1      	202.9     	-0.8      	-0.6      	-0.1      	 
 18:45:21	38.1562   	-123.5157 	911.4     	5.0       	125.02    	123.00    	304.3     	292.0     	1.2       	-0.2      	0.1       	4.9       	909.0     	885.0     	29.7      	203.5     	-0.1      	-1.0      	0.8       	 
 18:45:22	38.1568   	-123.5169 	911.4     	5.0       	125.01    	122.20    	304.4     	291.8     	1.2       	-0.1      	0.2       	4.9       	908.0     	885.0     	29.3      	202.2     	0.1       	-0.6      	0.8       	 
 18:45:23	38.1574   	-123.5180 	911.3     	5.0       	124.97    	121.90    	304.5     	292.1     	1.2       	-0.8      	0.2       	4.9       	908.0     	886.0     	29.4      	201.7     	0.0       	-0.4      	0.5       	 
 18:45:24	38.1581   	-123.5192 	911.3     	5.0       	124.93    	122.40    	304.5     	292.0     	1.3       	-2.7      	0.2       	4.9       	909.0     	886.0     	30.0      	202.8     	0.3       	-0.5      	0.8       	 
 18:45:25	38.1587   	-123.5204 	911.3     	5.0       	124.76    	122.50    	304.4     	291.7     	1.5       	-3.9      	0.2       	4.9       	909.0     	886.0     	29.6      	203.1     	0.5       	-0.1      	0.6       	 
 18:45:26	38.1593   	-123.5215 	911.2     	5.0       	124.54    	122.50    	304.2     	291.5     	1.5       	-4.0      	0.1       	4.9       	909.0     	887.0     	29.7      	203.4     	0.5       	0.1       	0.4       	 
 18:45:27	38.1600   	-123.5227 	911.2     	5.0       	124.33    	122.40    	304.1     	291.2     	1.6       	-3.5      	0.1       	4.9       	911.0     	887.0     	29.6      	203.5     	0.6       	0.1       	0.5       	 
 18:45:28	38.1606   	-123.5239 	911.2     	5.0       	124.11    	122.20    	303.9     	291.1     	1.6       	-3.4      	0.1       	4.9       	910.0     	887.0     	29.7      	203.4     	0.6       	0.0       	0.6       	 
 18:45:29	38.1612   	-123.5251 	911.1     	5.0       	123.90    	122.10    	303.8     	291.0     	1.6       	-3.2      	0.1       	4.9       	911.0     	888.0     	29.9      	203.3     	0.5       	0.3       	0.2       	 
 18:45:30	38.1618   	-123.5262 	910.9     	5.0       	123.70    	121.70    	303.7     	290.7     	1.6       	-2.9      	0.2       	4.9       	912.0     	889.0     	29.9      	203.0     	0.5       	0.1       	0.5       	 
 18:45:31	38.1624   	-123.5274 	910.9     	5.0       	123.52    	121.70    	303.6     	290.7     	1.6       	-2.5      	0.2       	4.8       	913.0     	889.0     	30.2      	203.1     	0.4       	0.2       	0.2       	 
 18:45:32	38.1631   	-123.5286 	910.9     	5.0       	123.36    	120.90    	303.6     	290.6     	1.6       	-2.2      	0.2       	4.8       	912.0     	889.0     	30.2      	201.8     	0.4       	0.0       	0.4       	 
 18:45:33	38.1637   	-123.5297 	910.7     	5.0       	123.18    	121.20    	303.5     	290.5     	1.6       	-2.2      	0.2       	4.8       	914.0     	891.0     	30.1      	202.7     	0.5       	0.0       	0.5       	 
 18:45:34	38.1643   	-123.5309 	910.7     	5.0       	123.03    	121.20    	303.5     	290.5     	1.5       	-2.2      	0.2       	4.8       	913.0     	891.0     	30.0      	202.9     	0.2       	-0.1      	0.4       	 
 18:45:35	38.1649   	-123.5321 	910.6     	5.0       	122.87    	121.10    	303.4     	290.5     	1.5       	-2.4      	0.2       	4.8       	913.0     	892.0     	29.3      	203.2     	0.4       	-0.4      	0.8       	 
 18:45:36	38.1655   	-123.5333 	910.6     	5.0       	122.73    	121.20    	303.3     	290.6     	1.2       	-2.4      	0.2       	4.8       	915.0     	892.0     	29.5      	203.5     	0.3       	-0.5      	0.8       	 
 18:45:37	38.1661   	-123.5344 	910.6     	5.0       	122.63    	120.70    	303.3     	290.5     	1.3       	-2.0      	0.2       	4.8       	914.0     	892.0     	29.9      	202.7     	0.5       	-0.6      	1.1       	 
 18:45:38	38.1667   	-123.5356 	910.5     	5.0       	122.52    	120.50    	303.3     	290.3     	1.2       	-2.4      	0.2       	4.8       	914.0     	893.0     	29.8      	202.4     	0.4       	-0.5      	0.8       	 
 18:45:39	38.1673   	-123.5368 	910.5     	5.0       	122.39    	120.40    	303.2     	290.2     	1.2       	-2.5      	0.2       	4.8       	914.0     	893.0     	29.7      	202.3     	0.2       	-0.6      	0.8       	 
 18:45:40	38.1679   	-123.5379 	910.5     	4.9       	122.30    	120.10    	303.1     	290.2     	1.2       	-2.2      	0.3       	4.6       	915.0     	893.0     	29.9      	202.0     	0.2       	-0.8      	1.0       	 
 18:45:41	38.1685   	-123.5391 	910.5     	4.9       	122.23    	120.20    	303.1     	290.0     	1.2       	-2.0      	0.2       	4.6       	915.0     	893.0     	30.4      	202.1     	0.1       	-0.8      	1.0       	 
 18:45:42	38.1691   	-123.5403 	910.5     	5.0       	122.15    	119.80    	303.1     	289.8     	1.2       	-1.7      	0.2       	4.6       	915.0     	893.0     	30.3      	201.4     	0.2       	-0.8      	1.0       	 
 18:45:43	38.1697   	-123.5414 	910.4     	4.9       	122.11    	119.20    	303.1     	289.7     	1.2       	-1.3      	0.3       	4.6       	915.0     	894.0     	30.5      	200.5     	0.3       	-1.1      	1.3       	 
 18:45:44	38.1703   	-123.5426 	910.4     	4.9       	122.09    	118.70    	303.1     	289.7     	1.1       	-1.2      	0.3       	4.6       	915.0     	894.0     	29.8      	199.5     	0.4       	-1.2      	1.6       	 
 18:45:45	38.1709   	-123.5437 	910.3     	4.9       	122.05    	118.10    	303.0     	290.0     	1.0       	-1.6      	0.3       	4.6       	915.0     	895.0     	28.7      	198.4     	0.1       	-1.2      	1.5       	 
 18:45:46	38.1715   	-123.5449 	910.4     	4.6       	122.03    	118.80    	303.0     	290.2     	1.0       	-2.0      	0.4       	4.5       	915.0     	894.0     	29.1      	199.7     	-0.3      	-1.1      	0.8       	 
 18:45:47	38.1721   	-123.5461 	910.4     	4.8       	122.00    	119.00    	302.9     	290.2     	1.2       	-1.8      	0.3       	4.5       	915.0     	894.0     	29.0      	200.2     	-0.1      	-1.2      	1.1       	 
 18:45:48	38.1727   	-123.5472 	910.4     	4.8       	121.94    	119.20    	302.9     	290.2     	1.2       	-1.7      	0.3       	4.5       	915.0     	894.0     	28.8      	200.6     	0.2       	-1.3      	1.6       	 
 18:45:49	38.1733   	-123.5484 	910.5     	4.6       	121.92    	119.80    	302.9     	290.2     	1.0       	-2.0      	0.3       	4.5       	915.0     	893.0     	29.5      	201.7     	-0.2      	-1.2      	1.1       	 
 18:45:50	38.1739   	-123.5496 	910.5     	4.8       	121.90    	119.90    	302.9     	290.1     	1.2       	-1.7      	0.3       	4.6       	915.0     	893.0     	29.3      	202.1     	0.1       	-1.0      	1.1       	 
 18:45:51	38.1745   	-123.5507 	910.4     	4.9       	121.83    	119.20    	302.8     	290.0     	1.2       	-1.7      	0.3       	4.6       	915.0     	894.0     	29.1      	200.8     	0.0       	-1.0      	0.8       	 
 18:45:52	38.1751   	-123.5519 	910.4     	4.8       	121.78    	119.00    	302.8     	290.1     	1.2       	-1.5      	0.4       	4.6       	915.0     	894.0     	28.7      	200.5     	-0.1      	-1.2      	1.1       	 
 18:45:53	38.1757   	-123.5531 	910.5     	4.8       	121.75    	119.20    	302.8     	290.2     	1.2       	-1.2      	0.3       	4.5       	915.0     	893.0     	28.6      	201.0     	-0.2      	-0.8      	0.6       	 
 18:45:54	38.1763   	-123.5542 	910.5     	4.8       	121.70    	119.40    	302.8     	290.3     	1.2       	-1.7      	0.3       	4.5       	915.0     	893.0     	28.1      	201.4     	-0.2      	-0.8      	0.6       	 
 18:45:55	38.1769   	-123.5554 	910.5     	4.8       	121.62    	119.60    	302.7     	290.5     	1.2       	-2.4      	0.3       	4.5       	915.0     	893.0     	28.1      	201.9     	-0.5      	-0.6      	0.1       	 
 18:45:56	38.1774   	-123.5566 	910.7     	4.8       	121.55    	119.30    	302.7     	290.3     	1.5       	-2.4      	0.4       	4.6       	914.0     	891.0     	29.1      	201.4     	-0.8      	-0.2      	-0.5      	 
 18:45:57	38.1780   	-123.5577 	910.7     	4.9       	121.50    	118.30    	302.7     	290.1     	1.7       	-1.5      	0.4       	4.6       	913.0     	891.0     	29.8      	199.6     	-0.1      	-1.2      	1.1       	 
 18:45:58	38.1786   	-123.5589 	910.7     	4.8       	121.47    	117.50    	302.8     	289.8     	1.3       	-0.8      	0.4       	4.6       	913.0     	891.0     	30.1      	198.1     	-0.3      	-0.8      	0.5       	 
 18:45:59	38.1792   	-123.5601 	910.7     	4.6       	121.44    	118.00    	302.8     	289.7     	1.5       	-1.1      	0.4       	4.5       	913.0     	891.0     	29.6      	199.2     	-0.5      	-0.6      	0.1       	 
 18:46:00	38.1798   	-123.5612 	910.7     	4.8       	121.38    	117.50    	302.8     	289.7     	1.6       	-1.6      	0.4       	4.6       	913.0     	891.0     	29.2      	198.3     	0.0       	-1.3      	1.5       	 
 18:46:01	38.1804   	-123.5624 	910.6     	4.6       	121.31    	117.70    	302.7     	289.8     	1.2       	-2.0      	0.4       	4.6       	913.0     	892.0     	28.4      	198.8     	-0.1      	-1.1      	1.0       	 
 18:46:02	38.1810   	-123.5635 	910.8     	4.6       	121.27    	118.10    	302.7     	290.0     	1.3       	-1.7      	0.4       	4.6       	912.0     	890.0     	29.3      	199.6     	-0.4      	-0.8      	0.4       	 
 18:46:03	38.1816   	-123.5647 	910.8     	4.8       	121.23    	118.50    	302.7     	289.8     	1.7       	-1.3      	0.3       	4.6       	912.0     	890.0     	29.8      	200.4     	-0.1      	-0.6      	0.5       	 
 18:46:04	38.1822   	-123.5659 	910.8     	4.8       	121.14    	118.50    	302.7     	289.7     	1.6       	-1.7      	0.3       	4.8       	912.0     	890.0     	29.7      	200.5     	0.0       	-0.5      	0.5       	 
 18:46:05	38.1828   	-123.5670 	910.8     	4.8       	121.04    	119.20    	302.7     	289.6     	1.6       	-1.6      	0.3       	4.8       	913.0     	890.0     	29.7      	202.1     	0.0       	-0.5      	0.5       	 
 18:46:06	38.1833   	-123.5682 	910.7     	4.9       	120.93    	119.80    	302.7     	289.6     	1.5       	-1.1      	0.3       	4.8       	912.0     	891.0     	28.9      	203.5     	0.3       	-0.4      	0.6       	 
 18:46:07	38.1839   	-123.5694 	910.7     	5.0       	120.84    	119.30    	302.7     	289.7     	1.3       	-1.2      	0.2       	4.8       	913.0     	891.0     	28.9      	202.8     	-0.1      	-0.1      	0.0       	 
 18:46:08	38.1845   	-123.5705 	910.8     	5.0       	120.75    	119.50    	302.7     	289.8     	1.7       	-1.3      	0.3       	4.9       	912.0     	890.0     	29.2      	203.3     	-0.1      	-0.2      	0.2       	 
 18:46:09	38.1851   	-123.5717 	910.7     	5.0       	120.64    	119.70    	302.7     	289.8     	1.7       	-1.6      	0.2       	4.9       	912.0     	891.0     	29.3      	203.9     	0.3       	-0.4      	0.6       	 
 18:46:10	38.1857   	-123.5728 	910.7     	5.0       	120.52    	119.70    	302.7     	289.7     	1.5       	-1.6      	0.2       	4.8       	912.0     	891.0     	29.4      	204.1     	0.3       	-0.3      	0.5       	 
 18:46:11	38.1863   	-123.5740 	910.7     	5.0       	120.38    	120.30    	302.7     	289.7     	1.6       	-1.5      	0.2       	4.9       	913.0     	891.0     	28.9      	205.6     	0.1       	0.0       	0.2       	 
 18:46:12	38.1869   	-123.5751 	910.7     	5.1       	120.21    	120.10    	302.7     	289.7     	1.6       	-1.5      	0.1       	4.9       	913.0     	891.0     	28.7      	205.6     	0.2       	-0.3      	0.4       	 
 18:46:13	38.1874   	-123.5763 	910.7     	5.1       	120.07    	119.80    	302.7     	289.8     	1.5       	-1.5      	0.2       	4.9       	913.0     	891.0     	29.0      	205.1     	0.1       	-0.2      	0.3       	 
 18:46:14	38.1880   	-123.5774 	910.7     	5.1       	119.94    	119.50    	302.7     	289.8     	1.6       	-1.5      	0.2       	4.9       	913.0     	891.0     	29.3      	204.8     	0.1       	-0.3      	0.4       	 
 18:46:15	38.1886   	-123.5786 	910.7     	5.1       	119.81    	119.40    	302.7     	289.7     	1.6       	-1.5      	0.2       	4.8       	913.0     	891.0     	29.5      	204.9     	0.1       	-0.2      	0.3       	 
 18:46:16	38.1892   	-123.5797 	910.7     	5.1       	119.67    	119.20    	302.7     	289.7     	1.6       	-1.3      	0.2       	4.8       	913.0     	891.0     	29.5      	204.7     	-0.1      	-0.2      	0.0       	 
 18:46:17	38.1898   	-123.5809 	910.6     	5.1       	119.53    	119.10    	302.7     	289.6     	1.7       	-1.2      	0.2       	4.8       	913.0     	892.0     	29.5      	204.8     	-0.1      	-0.2      	0.0       	 
 18:46:18	38.1903   	-123.5820 	910.6     	5.1       	119.38    	119.50    	302.8     	289.6     	1.6       	-1.1      	0.2       	4.8       	913.0     	892.0     	29.3      	206.0     	-0.1      	-0.2      	0.1       	 
 18:46:19	38.1909   	-123.5832 	910.7     	5.3       	119.22    	119.30    	302.8     	289.7     	1.6       	-1.2      	0.1       	4.8       	912.0     	891.0     	29.3      	205.8     	-0.1      	-0.3      	0.1       	 
 18:46:20	38.1915   	-123.5843 	910.7     	5.3       	119.10    	118.90    	302.8     	289.7     	1.6       	-1.2      	0.2       	4.9       	912.0     	891.0     	29.4      	205.4     	-0.2      	-0.3      	0.2       	 
 18:46:21	38.1921   	-123.5854 	910.7     	5.3       	118.97    	118.60    	302.8     	289.7     	1.7       	-1.2      	0.1       	4.9       	913.0     	891.0     	29.5      	205.0     	-0.1      	-0.4      	0.3       	 
 18:46:22	38.1927   	-123.5866 	910.7     	5.3       	118.84    	118.40    	302.9     	289.7     	1.7       	-1.5      	0.1       	4.9       	912.0     	891.0     	29.6      	204.9     	0.0       	-0.5      	0.5       	 
 18:46:23	38.1932   	-123.5877 	910.7     	5.3       	118.71    	118.70    	302.9     	289.7     	1.6       	-1.5      	0.1       	4.9       	912.0     	891.0     	29.4      	205.8     	-0.1      	-0.3      	0.3       	 
 18:46:24	38.1938   	-123.5889 	910.7     	5.3       	118.55    	118.90    	302.9     	289.7     	1.6       	-1.3      	0.1       	4.9       	912.0     	891.0     	29.0      	206.5     	0.0       	-0.3      	0.3       	 
 18:46:25	38.1944   	-123.5900 	910.7     	5.4       	118.41    	118.80    	302.8     	289.7     	1.6       	-1.2      	0.1       	4.9       	912.0     	891.0     	28.8      	206.7     	-0.1      	-0.3      	0.2       	 
 18:46:26	38.1950   	-123.5911 	910.7     	5.5       	118.29    	118.20    	302.9     	290.0     	1.6       	-1.2      	0.1       	4.9       	912.0     	891.0     	28.9      	205.7     	0.0       	-0.6      	0.8       	 
 18:46:27	38.1956   	-123.5922 	910.8     	5.4       	118.20    	118.00    	302.9     	290.0     	1.6       	-1.3      	0.1       	4.9       	912.0     	890.0     	29.7      	205.3     	0.0       	-0.6      	0.6       	 
 18:46:28	38.1961   	-123.5934 	910.7     	5.4       	118.08    	117.90    	303.0     	289.7     	1.7       	-1.6      	0.2       	4.9       	912.0     	891.0     	29.7      	205.3     	0.2       	-0.5      	0.6       	 
 18:46:29	38.1967   	-123.5945 	910.7     	5.3       	117.95    	117.80    	303.0     	289.6     	1.7       	-1.6      	0.2       	4.9       	912.0     	891.0     	29.5      	205.5     	0.2       	-0.5      	0.6       	 
 18:46:30	38.1973   	-123.5956 	910.7     	5.3       	117.82    	117.60    	302.9     	289.6     	1.6       	-1.3      	0.2       	5.0       	912.0     	891.0     	29.3      	205.3     	0.2       	-0.5      	0.6       	 
 18:46:31	38.1979   	-123.5968 	910.7     	5.3       	117.69    	117.50    	302.9     	289.6     	1.6       	-1.1      	0.2       	5.0       	913.0     	891.0     	29.2      	205.4     	0.0       	-0.5      	0.5       	 
 18:46:32	38.1984   	-123.5979 	910.7     	5.3       	117.59    	117.20    	303.0     	289.7     	1.7       	-1.0      	0.2       	5.0       	912.0     	891.0     	29.2      	205.0     	0.0       	-0.5      	0.6       	 
 18:46:33	38.1990   	-123.5990 	910.6     	5.1       	117.49    	116.90    	303.0     	289.7     	1.7       	-1.2      	0.2       	4.9       	912.0     	892.0     	28.9      	204.8     	0.1       	-0.6      	0.6       	 
 18:46:34	38.1996   	-123.6001 	910.6     	5.1       	117.37    	116.90    	303.0     	289.8     	1.6       	-1.3      	0.2       	4.9       	912.0     	892.0     	28.9      	205.0     	0.0       	-0.6      	0.6       	 
 18:46:35	38.2002   	-123.6013 	910.7     	5.1       	117.28    	116.80    	303.0     	289.7     	1.6       	-1.5      	0.2       	4.9       	911.0     	891.0     	29.3      	204.9     	-0.1      	-0.6      	0.5       	 
 18:46:36	38.2007   	-123.6024 	910.7     	5.1       	117.18    	116.90    	303.0     	289.7     	1.7       	-1.3      	0.2       	4.9       	912.0     	891.0     	29.2      	205.4     	0.1       	-0.6      	0.8       	 
 18:46:37	38.2013   	-123.6035 	910.7     	5.1       	117.06    	116.90    	303.0     	289.7     	1.6       	-1.3      	0.2       	4.9       	912.0     	891.0     	29.2      	205.6     	0.0       	-0.4      	0.4       	 
 18:46:38	38.2019   	-123.6046 	910.7     	5.1       	116.97    	116.70    	303.0     	289.7     	1.7       	-1.2      	0.2       	4.9       	911.0     	891.0     	29.7      	205.2     	-0.1      	-0.6      	0.5       	 
 18:46:39	38.2025   	-123.6057 	910.7     	5.1       	116.86    	116.70    	303.0     	289.6     	1.7       	-1.2      	0.2       	4.9       	912.0     	891.0     	29.6      	205.5     	0.0       	-0.6      	0.6       	 
 18:46:40	38.2030   	-123.6068 	910.7     	5.1       	116.74    	116.60    	303.0     	289.6     	1.7       	-1.2      	0.2       	4.9       	911.0     	891.0     	29.4      	205.5     	0.0       	-0.6      	0.6       	 
 18:46:41	38.2036   	-123.6080 	910.7     	5.1       	116.63    	116.50    	303.1     	289.6     	1.7       	-1.2      	0.2       	4.9       	911.0     	891.0     	29.6      	205.5     	-0.1      	-0.6      	0.6       	 
 18:46:42	38.2042   	-123.6091 	910.7     	5.1       	116.52    	116.40    	303.1     	289.6     	1.7       	-1.2      	0.2       	4.9       	911.0     	891.0     	29.1      	205.7     	0.0       	-0.6      	0.6       	 
 18:46:43	38.2047   	-123.6102 	910.7     	5.1       	116.41    	116.20    	303.1     	289.7     	1.6       	-1.2      	0.2       	4.9       	912.0     	891.0     	28.9      	205.5     	-0.1      	-0.6      	0.6       	 
 18:46:44	38.2053   	-123.6113 	910.7     	5.0       	116.30    	116.20    	303.0     	289.7     	1.7       	-1.2      	0.3       	4.9       	911.0     	891.0     	29.0      	205.6     	-0.1      	-0.8      	0.6       	 
 18:46:45	38.2059   	-123.6124 	910.7     	5.0       	116.21    	116.20    	303.1     	289.7     	1.7       	-1.2      	0.3       	4.9       	912.0     	891.0     	29.3      	205.9     	-0.1      	-0.6      	0.6       	 
 18:46:46	38.2065   	-123.6135 	910.8     	5.1       	116.11    	116.00    	303.1     	289.7     	1.7       	-1.3      	0.3       	5.0       	912.0     	890.0     	29.4      	205.7     	-0.1      	-0.5      	0.4       	 
 18:46:47	38.2070   	-123.6146 	910.8     	5.1       	115.99    	115.80    	303.1     	289.7     	1.7       	-1.5      	0.3       	5.0       	911.0     	890.0     	29.4      	205.5     	0.0       	-0.6      	0.6       	 
 18:46:48	38.2076   	-123.6157 	910.7     	5.1       	115.88    	115.40    	303.1     	289.6     	1.7       	-1.2      	0.3       	5.0       	911.0     	891.0     	29.5      	204.9     	0.1       	-0.6      	0.8       	 
 18:46:49	38.2082   	-123.6168 	910.7     	5.0       	115.80    	115.20    	303.1     	289.5     	1.7       	-1.0      	0.3       	5.0       	911.0     	891.0     	29.5      	204.7     	-0.1      	-0.6      	0.6       	 
 18:46:50	38.2087   	-123.6179 	910.7     	5.0       	115.69    	115.40    	303.1     	289.5     	1.7       	-1.0      	0.3       	5.0       	911.0     	891.0     	28.9      	205.4     	-0.1      	-0.6      	0.6       	 
 18:46:51	38.2093   	-123.6190 	910.7     	5.0       	115.58    	115.40    	303.1     	289.7     	1.7       	-1.2      	0.3       	5.0       	911.0     	891.0     	29.0      	205.5     	-0.2      	-0.6      	0.5       	 
 18:46:52	38.2099   	-123.6201 	910.8     	5.1       	115.49    	115.10    	303.1     	289.7     	1.7       	-1.3      	0.3       	4.9       	911.0     	890.0     	29.1      	205.2     	-0.2      	-0.6      	0.6       	 
 18:46:53	38.2104   	-123.6212 	910.8     	5.0       	115.39    	115.20    	303.1     	289.7     	1.7       	-1.2      	0.3       	4.9       	911.0     	890.0     	28.9      	205.6     	-0.1      	-0.6      	0.6       	 
 18:46:54	38.2110   	-123.6223 	910.8     	5.0       	115.27    	115.10    	303.1     	289.7     	1.7       	-1.3      	0.3       	4.9       	911.0     	890.0     	28.9      	205.5     	-0.1      	-0.6      	0.6       	 
 18:46:55	38.2116   	-123.6234 	910.8     	5.0       	115.17    	115.00    	303.1     	289.7     	1.7       	-1.2      	0.3       	4.9       	911.0     	890.0     	28.8      	205.6     	0.0       	-0.6      	0.6       	 
 18:46:56	38.2121   	-123.6245 	910.8     	5.1       	115.06    	115.00    	303.1     	289.7     	1.7       	-1.2      	0.2       	4.9       	911.0     	890.0     	28.7      	205.9     	0.0       	-0.6      	0.6       	 
 18:46:57	38.2127   	-123.6256 	910.8     	5.1       	114.95    	114.80    	303.1     	289.8     	1.8       	-1.2      	0.3       	4.9       	911.0     	890.0     	28.7      	205.7     	-0.1      	-0.5      	0.4       	 
 18:46:58	38.2133   	-123.6267 	910.8     	5.1       	114.84    	114.80    	303.1     	289.8     	1.8       	-1.3      	0.3       	5.0       	911.0     	890.0     	28.7      	205.9     	0.0       	-0.5      	0.5       	 
 18:46:59	38.2138   	-123.6278 	910.8     	5.1       	114.72    	114.30    	303.1     	289.8     	1.8       	-1.5      	0.3       	5.0       	910.0     	890.0     	28.9      	205.1     	0.0       	-0.5      	0.5       	 
 18:47:00	38.2144   	-123.6289 	910.8     	5.1       	114.61    	114.20    	303.1     	289.7     	2.0       	-1.5      	0.3       	5.0       	910.0     	890.0     	28.6      	205.1     	0.0       	-0.5      	0.5       	 
 18:47:01	38.2150   	-123.6300 	910.8     	5.1       	114.47    	114.10    	303.1     	289.7     	2.0       	-1.5      	0.3       	5.0       	910.0     	890.0     	28.5      	205.1     	0.0       	-0.4      	0.4       	 
 18:47:02	38.2155   	-123.6311 	910.8     	5.1       	114.36    	114.00    	303.1     	289.7     	2.0       	-1.3      	0.2       	5.0       	909.0     	890.0     	28.5      	205.2     	0.0       	-0.6      	0.6       	 
 18:47:03	38.2161   	-123.6322 	910.8     	5.1       	114.25    	113.60    	303.1     	289.8     	2.0       	-1.3      	0.2       	4.9       	910.0     	890.0     	28.3      	204.7     	0.1       	-0.6      	0.8       	 
 18:47:04	38.2166   	-123.6333 	910.8     	5.1       	114.13    	113.50    	303.1     	289.8     	1.8       	-1.6      	0.3       	4.9       	911.0     	890.0     	28.2      	204.7     	0.1       	-0.6      	0.8       	 
 18:47:05	38.2172   	-123.6344 	910.8     	5.1       	114.04    	113.30    	303.1     	289.8     	1.8       	-1.7      	0.3       	5.0       	909.0     	890.0     	28.3      	204.4     	0.1       	-0.6      	0.8       	 
 18:47:06	38.2178   	-123.6355 	910.8     	5.1       	113.96    	113.00    	303.0     	289.7     	2.0       	-1.3      	0.3       	5.0       	910.0     	890.0     	28.4      	203.9     	0.0       	-0.6      	0.6       	 
 18:47:07	38.2183   	-123.6366 	910.8     	5.1       	113.90    	112.70    	303.0     	289.7     	2.0       	-1.2      	0.3       	5.0       	910.0     	890.0     	28.6      	203.4     	0.0       	-0.6      	0.6       	 
 18:47:08	38.2189   	-123.6376 	910.8     	5.0       	113.84    	112.90    	303.1     	289.7     	2.0       	-1.2      	0.3       	5.0       	911.0     	890.0     	28.5      	204.0     	0.0       	-0.6      	0.6       	 
 18:47:09	38.2194   	-123.6387 	910.7     	5.0       	113.75    	113.50    	303.0     	289.7     	2.0       	-1.3      	0.3       	5.0       	911.0     	891.0     	28.1      	205.3     	0.0       	-0.4      	0.4       	 
 18:47:10	38.2200   	-123.6398 	910.8     	5.1       	113.67    	113.30    	303.0     	289.7     	2.0       	-1.3      	0.2       	5.0       	910.0     	890.0     	28.0      	205.1     	-0.1      	-0.5      	0.4       	 
 18:47:11	38.2205   	-123.6409 	910.8     	5.1       	113.60    	113.10    	303.0     	289.8     	2.0       	-1.3      	0.3       	5.0       	910.0     	890.0     	28.3      	204.7     	0.0       	-0.5      	0.5       	 
 18:47:12	38.2211   	-123.6420 	910.8     	5.1       	113.55    	112.90    	303.0     	289.8     	2.0       	-1.3      	0.3       	5.0       	909.0     	890.0     	28.7      	204.5     	-0.1      	-0.5      	0.4       	 
 18:47:13	38.2217   	-123.6431 	910.8     	5.1       	113.49    	112.50    	303.0     	289.7     	2.2       	-1.5      	0.3       	5.0       	910.0     	890.0     	28.4      	203.8     	0.0       	-0.4      	0.4       	 
 18:47:14	38.2222   	-123.6442 	910.8     	5.1       	113.40    	112.20    	303.0     	289.7     	2.2       	-1.5      	0.3       	5.0       	909.0     	890.0     	28.2      	203.4     	0.0       	-0.5      	0.5       	 
 18:47:15	38.2228   	-123.6452 	910.8     	5.1       	113.33    	112.20    	303.0     	289.7     	2.2       	-1.5      	0.3       	5.0       	910.0     	890.0     	28.3      	203.5     	0.0       	-0.5      	0.4       	 
 18:47:16	38.2233   	-123.6463 	910.8     	5.1       	113.26    	112.20    	303.0     	289.7     	2.2       	-1.2      	0.3       	5.0       	909.0     	890.0     	28.4      	203.7     	0.0       	-0.5      	0.4       	 
 18:47:17	38.2239   	-123.6474 	910.8     	5.1       	113.21    	112.50    	303.0     	289.7     	2.2       	-0.8      	0.2       	5.0       	909.0     	890.0     	28.5      	204.5     	0.1       	-0.4      	0.5       	 
 18:47:18	38.2244   	-123.6485 	910.8     	5.1       	113.16    	112.40    	303.1     	289.7     	2.0       	-1.1      	0.2       	5.0       	909.0     	890.0     	28.5      	204.4     	-0.1      	-0.5      	0.4       	 
 18:47:19	38.2250   	-123.6496 	910.8     	5.1       	113.13    	112.60    	303.1     	289.7     	2.0       	-1.2      	0.2       	5.0       	909.0     	890.0     	29.0      	204.7     	-0.2      	-0.6      	0.4       	 
 18:47:20	38.2255   	-123.6506 	910.8     	5.1       	113.09    	112.50    	303.1     	289.6     	2.2       	-1.2      	0.3       	5.0       	909.0     	890.0     	29.1      	204.6     	-0.1      	-0.5      	0.4       	 
 18:47:21	38.2261   	-123.6517 	910.8     	5.1       	113.01    	112.40    	303.1     	289.5     	2.0       	-1.2      	0.3       	5.0       	909.0     	890.0     	28.7      	204.6     	-0.1      	-0.5      	0.4       	 
 18:47:22	38.2267   	-123.6528 	910.8     	5.1       	112.97    	112.00    	303.1     	289.6     	2.0       	-1.1      	0.3       	5.0       	909.0     	890.0     	28.9      	203.9     	-0.2      	-0.5      	0.3       	 
 18:47:23	38.2272   	-123.6539 	910.9     	5.1       	112.94    	112.00    	303.2     	289.5     	2.2       	-1.0      	0.3       	5.0       	909.0     	889.0     	29.0      	203.9     	-0.3      	-0.4      	0.1       	 
 18:47:24	38.2278   	-123.6550 	910.9     	5.1       	112.88    	111.90    	303.2     	289.5     	2.2       	-1.2      	0.3       	5.0       	909.0     	889.0     	29.0      	203.9     	-0.4      	-0.3      	-0.1      	 
 18:47:25	38.2283   	-123.6560 	910.9     	5.1       	112.82    	111.90    	303.2     	289.5     	2.2       	-1.2      	0.3       	5.0       	908.0     	889.0     	28.9      	204.1     	-0.5      	-0.3      	-0.2      	 
 18:47:26	38.2289   	-123.6571 	910.9     	5.1       	112.77    	111.80    	303.2     	289.5     	2.2       	-1.1      	0.3       	5.0       	907.0     	889.0     	29.2      	204.0     	-0.3      	-0.6      	0.3       	 
 18:47:27	38.2294   	-123.6582 	910.9     	5.1       	112.73    	111.90    	303.2     	289.5     	2.0       	-1.1      	0.3       	5.0       	907.0     	889.0     	29.4      	204.2     	-0.2      	-0.8      	0.6       	 
 18:47:28	38.2300   	-123.6593 	911.1     	5.1       	112.69    	112.40    	303.3     	289.3     	2.0       	-1.2      	0.3       	5.0       	906.0     	888.0     	29.4      	205.1     	0.0       	-0.8      	0.8       	 
 18:47:29	38.2305   	-123.6603 	911.1     	5.1       	112.66    	112.60    	303.3     	289.3     	2.0       	-1.2      	0.2       	5.0       	907.0     	888.0     	29.4      	205.6     	0.0       	-0.8      	0.8       	 
 18:47:30	38.2311   	-123.6614 	911.1     	5.1       	112.62    	112.50    	303.3     	289.3     	2.0       	-1.1      	0.2       	5.0       	906.0     	888.0     	29.3      	205.5     	0.2       	-0.8      	1.0       	 
 18:47:31	38.2317   	-123.6625 	911.1     	5.1       	112.59    	112.60    	303.3     	289.3     	2.0       	-1.0      	0.2       	5.0       	905.0     	888.0     	29.4      	205.8     	0.3       	-0.6      	1.0       	 
 18:47:32	38.2322   	-123.6636 	910.9     	5.0       	112.55    	112.90    	303.3     	289.3     	2.0       	-0.8      	0.2       	5.0       	906.0     	889.0     	29.4      	206.5     	0.4       	-0.6      	0.8       	 
 18:47:33	38.2328   	-123.6646 	911.1     	5.1       	112.50    	112.80    	303.3     	289.5     	2.0       	-0.8      	0.2       	5.0       	906.0     	888.0     	29.4      	206.5     	0.3       	-0.4      	0.6       	 
 18:47:34	38.2333   	-123.6657 	910.9     	5.0       	112.45    	113.10    	303.4     	289.5     	2.2       	-1.0      	0.2       	5.0       	906.0     	889.0     	29.5      	207.0     	0.4       	-0.4      	0.8       	 
 18:47:35	38.2339   	-123.6668 	910.9     	5.1       	112.40    	113.00    	303.4     	289.5     	2.0       	-1.1      	0.2       	5.0       	907.0     	889.0     	29.5      	207.0     	0.4       	-0.5      	0.8       	 
 18:47:36	38.2344   	-123.6678 	910.8     	5.1       	112.34    	113.20    	303.4     	289.5     	2.0       	-1.1      	0.2       	5.0       	908.0     	890.0     	29.1      	207.7     	0.3       	-0.5      	0.8       	 
 18:47:37	38.2350   	-123.6689 	910.8     	5.1       	112.29    	112.90    	303.4     	289.7     	2.0       	-1.1      	0.2       	5.0       	908.0     	890.0     	29.0      	207.3     	0.3       	-0.6      	0.8       	 
 18:47:38	38.2355   	-123.6700 	910.8     	5.1       	112.25    	113.10    	303.4     	289.7     	2.0       	-1.2      	0.2       	5.0       	908.0     	890.0     	29.2      	207.6     	0.2       	-0.6      	0.8       	 
 18:47:39	38.2361   	-123.6710 	910.7     	5.1       	112.20    	113.10    	303.4     	289.7     	1.8       	-1.5      	0.2       	5.0       	908.0     	891.0     	29.3      	207.8     	0.0       	-0.6      	0.6       	 
 18:47:40	38.2367   	-123.6721 	910.8     	5.1       	112.16    	113.30    	303.5     	289.7     	2.0       	-1.2      	0.2       	5.0       	908.0     	890.0     	29.3      	208.1     	0.1       	-0.8      	0.8       	 
 18:47:41	38.2372   	-123.6732 	910.7     	5.3       	112.14    	113.10    	303.5     	289.7     	1.7       	-1.1      	0.2       	5.0       	908.0     	891.0     	29.3      	207.8     	0.0       	-0.8      	0.8       	 
 18:47:42	38.2378   	-123.6742 	910.8     	5.3       	112.14    	112.40    	303.5     	289.7     	1.8       	-1.2      	0.2       	5.0       	909.0     	890.0     	29.4      	206.4     	-0.1      	-1.1      	1.0       	 
 18:47:43	38.2383   	-123.6753 	910.7     	5.1       	112.12    	112.60    	303.5     	289.6     	1.8       	-1.3      	0.2       	5.0       	908.0     	891.0     	29.1      	206.9     	0.0       	-1.0      	0.8       	 
 18:47:44	38.2389   	-123.6764 	910.7     	5.1       	112.10    	112.70    	303.5     	289.6     	1.8       	-1.3      	0.2       	5.0       	908.0     	891.0     	29.1      	207.1     	-0.2      	-0.8      	0.6       	 
 18:47:45	38.2394   	-123.6774 	910.7     	5.1       	112.08    	113.00    	303.5     	289.7     	2.0       	-1.2      	0.2       	5.0       	908.0     	891.0     	29.2      	207.8     	-0.1      	-0.8      	0.6       	 
 18:47:46	38.2400   	-123.6785 	910.8     	5.1       	112.06    	112.80    	303.5     	289.7     	1.8       	-1.2      	0.2       	5.0       	908.0     	890.0     	29.2      	207.4     	-0.2      	-0.8      	0.6       	 
 18:47:47	38.2405   	-123.6796 	910.8     	5.1       	112.04    	112.40    	303.5     	289.7     	2.0       	-1.2      	0.2       	5.0       	908.0     	890.0     	29.1      	206.8     	-0.1      	-1.0      	0.8       	 
 18:47:48	38.2411   	-123.6806 	910.8     	5.0       	112.04    	112.40    	303.5     	289.7     	1.8       	-1.2      	0.2       	5.0       	907.0     	890.0     	29.0      	206.7     	0.0       	-1.0      	1.0       	 
 18:47:49	38.2417   	-123.6817 	910.8     	5.0       	112.01    	112.80    	303.5     	289.7     	1.8       	-1.2      	0.2       	5.0       	908.0     	890.0     	28.9      	207.6     	-0.1      	-0.8      	0.6       	 
 18:47:50	38.2422   	-123.6828 	910.8     	5.1       	111.99    	112.60    	303.5     	289.8     	2.0       	-1.2      	0.2       	5.0       	908.0     	890.0     	28.8      	207.3     	-0.2      	-0.5      	0.3       	 
 18:47:51	38.2428   	-123.6838 	910.9     	5.1       	111.97    	112.20    	303.5     	289.8     	2.0       	-1.3      	0.2       	5.0       	907.0     	889.0     	28.8      	206.6     	-0.5      	-0.6      	0.1       	 
 18:47:52	38.2433   	-123.6849 	910.9     	5.1       	111.93    	112.20    	303.5     	289.7     	2.0       	-1.7      	0.2       	5.0       	907.0     	889.0     	29.2      	206.5     	-0.3      	-0.8      	0.5       	 
 18:47:53	38.2439   	-123.6860 	910.9     	5.1       	111.89    	112.00    	303.5     	289.7     	2.2       	-1.7      	0.2       	5.0       	907.0     	889.0     	29.0      	206.3     	-0.1      	-0.8      	0.8       	 
 18:47:54	38.2444   	-123.6870 	911.1     	5.1       	111.82    	112.30    	303.4     	289.6     	2.0       	-1.3      	0.2       	5.0       	907.0     	888.0     	28.7      	207.0     	-0.2      	-0.4      	0.2       	 
 18:47:55	38.2450   	-123.6881 	910.9     	5.1       	111.76    	112.20    	303.4     	289.7     	2.2       	-1.2      	0.2       	5.0       	907.0     	889.0     	28.3      	207.1     	-0.1      	-0.4      	0.3       	 
 18:47:56	38.2455   	-123.6891 	910.9     	5.1       	111.70    	112.90    	303.4     	289.8     	2.0       	-1.1      	0.2       	5.0       	907.0     	889.0     	28.6      	208.4     	-0.1      	-0.5      	0.4       	 
 18:47:57	38.2461   	-123.6902 	911.1     	5.1       	111.64    	113.70    	303.4     	290.0     	2.0       	-1.3      	0.1       	5.0       	906.0     	888.0     	28.7      	210.1     	-0.1      	-0.3      	0.2       	 
 18:47:58	38.2466   	-123.6913 	911.1     	5.3       	111.56    	113.40    	303.4     	290.0     	2.2       	-1.7      	0.2       	5.0       	907.0     	888.0     	28.5      	209.7     	-0.2      	-0.1      	0.0       	 
 18:47:59	38.2472   	-123.6923 	911.1     	5.4       	111.46    	112.80    	303.3     	290.0     	2.2       	-1.7      	0.2       	5.1       	906.0     	888.0     	28.1      	208.9     	-0.2      	-0.1      	0.0       	 
 18:48:00	38.2477   	-123.6934 	911.1     	5.4       	111.38    	112.40    	303.3     	290.0     	2.2       	-1.5      	0.2       	5.0       	907.0     	888.0     	28.6      	208.1     	-0.2      	-0.2      	0.0       	 
 18:48:01	38.2483   	-123.6945 	911.1     	5.3       	111.29    	113.60    	303.3     	289.8     	2.2       	-1.3      	0.1       	5.0       	907.0     	888.0     	28.1      	210.8     	-0.1      	-0.1      	0.0       	 
 18:48:02	38.2488   	-123.6955 	911.2     	5.5       	111.19    	113.40    	303.3     	290.1     	2.2       	-1.3      	0.1       	5.0       	907.0     	887.0     	28.7      	210.3     	-0.1      	0.1       	-0.2      	 
 18:48:03	38.2494   	-123.6966 	911.1     	5.6       	111.12    	113.20    	303.4     	290.0     	2.4       	-1.5      	0.1       	5.1       	907.0     	888.0     	28.7      	210.1     	-0.1      	-0.2      	0.1       	 
 18:48:04	38.2499   	-123.6976 	910.9     	5.6       	111.01    	113.10    	303.3     	289.7     	2.2       	-1.3      	0.1       	5.0       	907.0     	889.0     	28.3      	210.3     	0.4       	-0.8      	1.2       	 
 18:48:05	38.2505   	-123.6987 	911.1     	5.4       	110.91    	114.60    	303.3     	289.8     	2.0       	-1.2      	0.1       	5.0       	907.0     	888.0     	28.7      	213.5     	0.5       	-0.4      	1.0       	 
 18:48:06	38.2510   	-123.6997 	911.1     	5.5       	110.81    	115.50    	303.3     	290.0     	2.0       	-1.7      	0.1       	5.0       	908.0     	888.0     	28.3      	215.7     	0.5       	0.1       	0.3       	 
 18:48:07	38.2516   	-123.7008 	910.9     	5.6       	110.63    	116.30    	303.2     	290.1     	2.2       	-2.2      	0.1       	5.0       	908.0     	889.0     	27.9      	217.9     	0.6       	0.1       	0.5       	 
 18:48:08	38.2521   	-123.7019 	910.8     	5.6       	110.46    	116.10    	303.1     	290.2     	2.0       	-2.0      	0.1       	5.0       	909.0     	890.0     	27.6      	218.0     	0.8       	-0.2      	1.0       	 
 18:48:09	38.2527   	-123.7029 	910.8     	5.9       	110.36    	115.60    	303.1     	290.5     	1.8       	-1.5      	0.1       	5.0       	909.0     	890.0     	27.3      	217.3     	1.0       	-0.4      	1.3       	 
 18:48:10	38.2532   	-123.7040 	910.7     	5.9       	110.27    	115.70    	303.1     	290.7     	1.7       	-1.5      	0.1       	5.0       	911.0     	891.0     	27.1      	217.7     	0.4       	0.1       	0.3       	 
 18:48:11	38.2538   	-123.7050 	910.7     	5.9       	110.16    	115.70    	303.0     	290.7     	2.0       	-2.0      	0.1       	5.0       	911.0     	891.0     	26.4      	218.5     	0.2       	0.4       	-0.2      	 
 18:48:12	38.2543   	-123.7061 	910.6     	6.0       	110.01    	114.90    	302.9     	291.0     	2.0       	-2.7      	0.1       	5.0       	911.0     	892.0     	26.5      	216.8     	0.0       	0.0       	0.0       	 
 18:48:13	38.2548   	-123.7071 	910.7     	6.0       	109.93    	113.50    	302.9     	290.8     	2.0       	-2.4      	0.1       	4.8       	911.0     	891.0     	27.4      	213.3     	0.1       	-0.4      	0.4       	 
 18:48:14	38.2554   	-123.7082 	910.6     	6.0       	109.85    	113.20    	302.9     	290.3     	2.0       	-2.0      	0.1       	4.8       	912.0     	892.0     	26.8      	213.1     	0.0       	-0.6      	0.6       	 
 18:48:15	38.2559   	-123.7092 	910.6     	5.9       	109.76    	112.30    	302.8     	290.2     	2.0       	-2.2      	0.1       	5.0       	911.0     	892.0     	25.8      	211.9     	-0.2      	-0.8      	0.6       	 
 18:48:16	38.2564   	-123.7103 	910.5     	5.8       	109.70    	112.40    	302.7     	290.5     	2.0       	-1.7      	0.1       	5.1       	911.0     	893.0     	26.2      	211.8     	-0.1      	-0.8      	0.6       	 
 18:48:17	38.2570   	-123.7113 	910.6     	5.5       	109.68    	113.60    	302.7     	290.3     	1.8       	-2.0      	0.1       	5.1       	910.0     	892.0     	27.6      	213.8     	-0.3      	-0.6      	0.5       	 
 18:48:18	38.2575   	-123.7124 	910.8     	5.6       	109.65    	113.50    	302.7     	290.0     	2.0       	-2.2      	0.1       	5.1       	911.0     	890.0     	28.5      	213.1     	-0.2      	-0.6      	0.4       	 
 18:48:19	38.2580   	-123.7134 	910.7     	5.5       	109.57    	113.80    	302.7     	289.5     	2.0       	-1.8      	0.1       	5.4       	910.0     	891.0     	28.6      	213.9     	-0.1      	-0.4      	0.3       	 
 18:48:20	38.2586   	-123.7145 	910.6     	5.5       	109.43    	115.90    	302.7     	289.2     	2.0       	-1.2      	0.2       	5.4       	910.0     	892.0     	28.3      	218.7     	0.2       	0.1       	0.1       	 
 18:48:21	38.2591   	-123.7155 	910.7     	5.8       	109.26    	115.80    	302.6     	289.5     	2.0       	-1.3      	0.1       	5.3       	910.0     	891.0     	26.3      	220.2     	-0.1      	0.3       	-0.4      	 
 18:48:22	38.2596   	-123.7166 	910.7     	6.0       	109.14    	115.00    	302.5     	290.0     	2.0       	-1.5      	0.1       	4.8       	910.0     	891.0     	27.7      	217.8     	0.0       	-0.5      	0.6       	 
 18:48:23	38.2602   	-123.7176 	910.8     	5.8       	109.08    	116.60    	302.6     	290.0     	2.0       	-1.2      	0.1       	4.4       	910.0     	890.0     	30.0      	219.7     	0.1       	0.1       	0.0       	 
 18:48:24	38.2607   	-123.7187 	910.9     	5.8       	109.05    	115.40    	302.8     	289.3     	2.2       	-1.3      	0.1       	4.5       	910.0     	889.0     	31.6      	216.3     	0.5       	-0.4      	0.8       	 
 18:48:25	38.2612   	-123.7197 	910.7     	5.8       	108.98    	114.10    	302.9     	288.6     	2.0       	-1.2      	0.1       	4.8       	911.0     	891.0     	30.3      	214.8     	0.8       	-0.4      	1.2       	 
 18:48:26	38.2617   	-123.7208 	910.6     	6.0       	108.85    	114.20    	302.8     	288.3     	1.7       	-0.2      	0.1       	4.8       	911.0     	892.0     	28.9      	216.0     	-0.1      	0.2       	-0.3      	 
 18:48:27	38.2623   	-123.7218 	910.6     	6.0       	108.78    	113.60    	302.8     	288.8     	2.0       	0.1       	0.1       	4.4       	912.0     	892.0     	27.9      	215.5     	-0.8      	0.6       	-1.3      	 
 18:48:28	38.2628   	-123.7228 	910.6     	5.9       	108.68    	114.30    	302.9     	289.5     	2.4       	-0.6      	0.1       	4.0       	910.0     	892.0     	28.5      	216.9     	-0.6      	0.0       	-0.6      	 
 18:48:29	38.2633   	-123.7239 	910.7     	5.6       	108.61    	114.40    	303.0     	289.7     	2.2       	-0.8      	0.1       	4.3       	910.0     	891.0     	29.5      	216.8     	0.6       	-2.0      	2.7       	 
 18:48:30	38.2639   	-123.7249 	910.7     	5.5       	108.69    	114.00    	303.2     	289.6     	1.6       	0.1       	0.1       	4.5       	910.0     	891.0     	30.9      	215.2     	1.6       	-1.7      	3.4       	 
 18:48:31	38.2644   	-123.7260 	910.5     	5.6       	108.80    	110.80    	303.2     	289.2     	1.2       	0.6       	0.1       	5.0       	912.0     	893.0     	26.1      	210.9     	0.3       	-0.8      	1.2       	 
 18:48:32	38.2649   	-123.7270 	910.3     	5.3       	108.73    	112.00    	303.0     	290.0     	1.5       	-1.2      	0.2       	5.1       	912.0     	895.0     	22.1      	215.8     	-0.6      	-0.6      	0.1       	 
 18:48:33	38.2655   	-123.7280 	910.4     	5.0       	108.63    	113.50    	302.8     	291.1     	1.8       	-2.9      	0.2       	5.3       	910.0     	894.0     	23.1      	219.1     	-0.5      	-0.6      	0.1       	 
 18:48:34	38.2660   	-123.7291 	910.6     	5.1       	108.50    	115.90    	302.6     	291.6     	2.0       	-4.3      	0.2       	5.3       	911.0     	892.0     	24.8      	223.9     	-1.1      	0.6       	-1.7      	 
 18:48:35	38.2665   	-123.7301 	910.9     	5.5       	108.29    	116.80    	302.4     	291.5     	2.5       	-4.1      	0.2       	5.0       	910.0     	889.0     	26.4      	224.7     	-0.8      	0.2       	-1.0      	 
 18:48:36	38.2670   	-123.7312 	910.8     	5.8       	108.02    	115.80    	302.3     	291.0     	2.5       	-2.0      	0.1       	4.6       	909.0     	890.0     	25.1      	224.2     	-0.3      	0.6       	-0.8      	 
 18:48:37	38.2676   	-123.7322 	910.9     	5.9       	107.81    	114.50    	302.3     	291.1     	2.2       	0.2       	0.2       	4.5       	909.0     	889.0     	25.2      	221.4     	-0.8      	0.8       	-1.7      	 
 18:48:38	38.2681   	-123.7332 	911.1     	5.8       	107.68    	114.00    	302.6     	291.2     	2.5       	2.0       	0.2       	4.5       	907.0     	888.0     	27.0      	219.4     	-1.1      	0.5       	-1.6      	 
 18:48:39	38.2686   	-123.7343 	911.2     	5.6       	107.49    	113.80    	303.2     	291.2     	2.7       	3.7       	0.1       	4.6       	906.0     	887.0     	28.0      	219.1     	-0.2      	0.2       	-0.4      	 
 18:48:40	38.2691   	-123.7353 	911.1     	5.5       	107.26    	111.90    	303.7     	291.2     	2.4       	3.0       	0.1       	4.8       	906.0     	888.0     	26.3      	217.1     	-0.3      	0.0       	-0.4      	 
 18:48:41	38.2697   	-123.7363 	911.1     	5.5       	107.02    	109.70    	304.0     	291.7     	2.2       	1.7       	0.1       	4.9       	906.0     	888.0     	24.9      	213.6     	-0.5      	-0.6      	0.3       	 
 18:48:42	38.2702   	-123.7373 	911.2     	5.4       	106.85    	108.80    	304.4     	292.2     	2.4       	2.4       	0.2       	5.0       	906.0     	887.0     	26.5      	211.6     	-0.6      	-0.8      	0.3       	 
 18:48:43	38.2708   	-123.7383 	911.2     	5.3       	106.77    	108.90    	304.9     	292.5     	2.7       	4.0       	0.3       	5.0       	905.0     	887.0     	27.4      	212.1     	-0.1      	-0.6      	0.6       	 
 18:48:44	38.2713   	-123.7393 	911.2     	5.1       	106.73    	109.40    	305.5     	292.5     	2.5       	4.9       	0.3       	5.4       	905.0     	887.0     	27.3      	213.7     	-0.5      	0.5       	-0.8      	 
 18:48:45	38.2719   	-123.7403 	911.2     	5.1       	106.81    	109.90    	306.0     	293.0     	3.0       	5.8       	0.4       	5.5       	904.0     	887.0     	27.2      	215.3     	-0.1      	0.2       	-0.4      	 
 18:48:46	38.2724   	-123.7413 	911.2     	5.0       	107.04    	109.40    	306.7     	293.7     	2.9       	6.6       	0.4       	5.5       	905.0     	887.0     	27.2      	214.4     	0.4       	0.1       	0.3       	 
 18:48:47	38.2730   	-123.7423 	911.1     	5.1       	107.40    	107.90    	307.4     	294.5     	2.7       	6.6       	0.4       	5.4       	904.0     	888.0     	26.1      	211.5     	0.6       	-0.3      	0.8       	 
 18:48:48	38.2736   	-123.7432 	911.1     	5.0       	107.80    	108.00    	308.0     	295.5     	2.7       	5.8       	0.4       	5.4       	905.0     	888.0     	27.3      	211.2     	0.6       	-0.2      	1.0       	 
 18:48:49	38.2742   	-123.7442 	911.1     	5.0       	108.18    	108.40    	308.6     	295.8     	2.7       	3.9       	0.3       	5.4       	905.0     	888.0     	26.9      	212.0     	1.2       	-0.5      	1.7       	 
 18:48:50	38.2748   	-123.7452 	911.1     	5.0       	108.48    	109.30    	308.9     	296.2     	2.5       	1.6       	0.2       	5.3       	906.0     	888.0     	27.2      	213.5     	0.8       	0.6       	0.4       	 
 18:48:51	38.2754   	-123.7461 	911.1     	5.1       	108.75    	109.90    	309.1     	296.2     	2.7       	1.0       	0.2       	5.0       	908.0     	888.0     	26.2      	214.8     	0.0       	1.5       	-1.5      	 
 18:48:52	38.2761   	-123.7471 	910.8     	5.3       	108.98    	111.00    	309.2     	296.5     	3.0       	0.6       	0.2       	4.6       	908.0     	890.0     	25.2      	217.2     	0.4       	0.6       	-0.2      	 
 18:48:53	38.2767   	-123.7481 	910.7     	5.5       	109.16    	110.60    	309.1     	296.8     	2.7       	0.5       	0.2       	4.4       	908.0     	891.0     	23.1      	216.6     	0.4       	0.8       	-0.5      	 
 18:48:54	38.2773   	-123.7490 	910.7     	5.5       	109.41    	110.90    	309.1     	297.6     	2.5       	0.5       	0.2       	4.1       	908.0     	891.0     	23.3      	216.8     	0.3       	0.4       	-0.2      	 
 18:48:55	38.2779   	-123.7500 	910.7     	5.5       	109.72    	111.80    	309.2     	298.1     	2.7       	0.1       	0.2       	3.9       	908.0     	891.0     	24.7      	217.6     	1.2       	-0.5      	1.8       	 
 18:48:56	38.2785   	-123.7510 	910.7     	5.6       	110.05    	110.60    	309.3     	298.0     	2.2       	-0.5      	0.2       	4.0       	909.0     	891.0     	23.6      	214.6     	0.8       	0.6       	0.2       	 
 18:48:57	38.2792   	-123.7519 	910.6     	5.6       	110.35    	110.60    	309.2     	298.1     	2.2       	-0.6      	0.2       	3.9       	910.0     	892.0     	23.8      	213.6     	0.4       	0.1       	0.3       	 
 18:48:58	38.2798   	-123.7529 	910.5     	5.5       	110.62    	111.30    	309.3     	298.1     	2.5       	-0.3      	0.1       	3.5       	911.0     	893.0     	24.1      	214.6     	0.8       	-0.3      	1.1       	 
 18:48:59	38.2804   	-123.7539 	910.5     	5.5       	110.89    	111.40    	309.3     	298.2     	2.2       	0.1       	0.1       	3.5       	912.0     	893.0     	23.6      	214.6     	0.6       	0.0       	0.6       	 
 18:49:00	38.2811   	-123.7549 	910.4     	5.5       	111.18    	111.00    	309.3     	298.3     	2.2       	-0.2      	0.1       	3.7       	912.0     	894.0     	22.7      	213.0     	0.3       	-0.1      	0.5       	 
 18:49:01	38.2817   	-123.7558 	910.3     	5.5       	111.47    	111.60    	309.3     	298.6     	2.0       	-0.8      	0.1       	3.7       	913.0     	895.0     	22.6      	213.9     	-0.1      	-0.1      	-0.1      	 
 18:49:02	38.2823   	-123.7568 	910.4     	5.5       	111.72    	112.70    	309.2     	298.7     	2.2       	-1.2      	0.1       	3.5       	913.0     	894.0     	22.8      	215.9     	-0.4      	0.3       	-0.6      	 
 18:49:03	38.2830   	-123.7578 	910.4     	5.5       	111.93    	113.50    	309.2     	298.7     	2.4       	-1.6      	0.2       	3.4       	911.0     	894.0     	22.7      	217.3     	-0.5      	0.4       	-0.8      	 
 18:49:04	38.2836   	-123.7588 	910.4     	5.5       	112.08    	113.50    	309.1     	298.7     	2.4       	-1.6      	0.3       	3.5       	911.0     	894.0     	21.5      	217.5     	-0.3      	0.1       	-0.5      	 
 18:49:05	38.2842   	-123.7598 	910.4     	5.5       	112.24    	113.70    	308.9     	299.0     	2.2       	-1.8      	0.2       	3.7       	911.0     	894.0     	20.6      	217.6     	-0.6      	-0.1      	-0.5      	 
 18:49:06	38.2849   	-123.7608 	910.5     	5.6       	112.42    	114.40    	308.8     	299.3     	2.2       	-2.4      	0.2       	4.0       	910.0     	893.0     	21.9      	218.6     	-0.1      	-0.5      	0.4       	 
 18:49:07	38.2855   	-123.7618 	910.6     	5.8       	112.59    	114.40    	308.8     	299.1     	2.0       	-3.0      	0.3       	3.7       	910.0     	892.0     	23.0      	217.6     	0.0       	-0.4      	0.4       	 
 18:49:08	38.2861   	-123.7628 	910.6     	5.8       	112.64    	115.20    	308.7     	298.3     	2.0       	-2.2      	0.3       	3.5       	910.0     	892.0     	23.3      	219.0     	-0.1      	0.0       	-0.1      	 
 18:49:09	38.2868   	-123.7638 	910.5     	5.9       	112.68    	114.60    	308.7     	298.1     	2.0       	2.7       	0.3       	3.7       	910.0     	893.0     	23.3      	217.7     	-0.4      	0.5       	-0.8      	 
 18:49:10	38.2874   	-123.7648 	910.5     	5.8       	112.80    	114.30    	309.2     	298.6     	2.2       	8.3       	0.2       	3.9       	909.0     	893.0     	23.7      	216.9     	-0.8      	0.8       	-1.5      	 
 18:49:11	38.2881   	-123.7658 	910.5     	5.6       	113.05    	114.80    	310.2     	299.6     	2.4       	13.3      	0.2       	3.9       	908.0     	893.0     	24.0      	218.2     	-0.8      	0.5       	-1.3      	 
 18:49:12	38.2887   	-123.7668 	910.5     	5.5       	113.43    	114.80    	311.6     	301.2     	2.4       	18.2      	0.2       	3.7       	908.0     	893.0     	23.2      	219.2     	-0.5      	0.3       	-0.8      	 
 18:49:13	38.2894   	-123.7677 	910.6     	5.5       	113.88    	115.60    	313.3     	303.3     	2.2       	21.7      	0.2       	3.7       	908.0     	892.0     	22.5      	222.2     	-0.8      	0.6       	-1.7      	 
 18:49:14	38.2901   	-123.7687 	910.7     	5.5       	114.39    	115.80    	315.4     	306.2     	2.7       	23.3      	0.2       	3.7       	907.0     	891.0     	21.6      	223.8     	-0.5      	0.3       	-0.8      	 
 18:49:15	38.2909   	-123.7696 	910.8     	5.8       	115.00    	112.00    	317.8     	309.3     	2.7       	25.1      	0.3       	4.0       	907.0     	890.0     	22.6      	214.7     	0.8       	-0.8      	1.7       	 
 18:49:16	38.2917   	-123.7704 	910.8     	5.5       	115.70    	111.00    	320.5     	312.2     	2.2       	28.2      	0.2       	4.3       	907.0     	890.0     	23.1      	213.2     	0.8       	0.1       	0.8       	 
 18:49:17	38.2925   	-123.7712 	910.6     	5.5       	116.42    	110.20    	323.3     	315.5     	2.2       	30.7      	0.1       	4.4       	909.0     	892.0     	22.8      	211.9     	0.6       	0.1       	0.5       	 
 18:49:18	38.2933   	-123.7720 	910.6     	5.5       	117.18    	109.00    	326.4     	319.1     	2.5       	32.0      	0.1       	4.3       	909.0     	892.0     	23.4      	210.5     	0.6       	0.6       	0.0       	 
 18:49:19	38.2942   	-123.7727 	910.5     	5.5       	117.91    	109.30    	329.5     	322.3     	2.7       	32.5      	0.1       	4.0       	910.0     	893.0     	22.5      	211.8     	0.4       	0.5       	-0.1      	 
